city_ID,City,Country,Lat,Lng,Max Temp,Humidity,Cloudiness,Wind Speed,Description,Date
0,Bluff,NZ,-46.6,168.3333,57.11,77,62,0.65,broken clouds,2021-10-27 01:12:45
1,Punta Arenas,CL,-53.15,-70.9167,42.91,70,0,14.97,clear sky,2021-10-27 01:11:17
2,Yellowknife,CA,62.456,-114.3525,40.41,100,90,4.61,light rain,2021-10-27 01:12:46
3,Tarakan,ID,3.3,117.6333,80.1,89,75,3.44,broken clouds,2021-10-27 01:12:47
4,Dunedin,NZ,-45.8742,170.5036,57.56,81,62,4.72,broken clouds,2021-10-27 01:12:47
5,Santo Domingo,DO,18.5001,-69.9886,74.88,83,5,2.35,clear sky,2021-10-27 01:11:04
6,Ostrow Wielkopolski,PL,51.655,17.8069,49.6,90,100,8.21,overcast clouds,2021-10-27 01:12:48
7,Port Alfred,ZA,-33.5906,26.891,66.92,85,100,28.52,overcast clouds,2021-10-27 01:12:48
8,Krasnyy Yar,RU,46.5331,48.3456,39.13,72,6,1.74,clear sky,2021-10-27 01:12:48
9,Rikitea,PF,-23.1203,-134.9692,74.53,84,100,13.56,moderate rain,2021-10-27 01:12:49
10,Mataura,NZ,-46.1927,168.8643,65.21,60,94,4.38,overcast clouds,2021-10-27 01:12:49
11,Nikolskoye,RU,59.7035,30.7861,44.87,94,100,8.61,overcast clouds,2021-10-27 01:12:50
12,Busselton,AU,-33.65,115.3333,53.04,82,100,12.55,overcast clouds,2021-10-27 01:12:50
13,Dikson,RU,73.5069,80.5464,12.74,87,100,9.31,overcast clouds,2021-10-27 01:12:50
14,Upernavik,GL,72.7868,-56.1549,16.75,46,97,2.3,overcast clouds,2021-10-27 01:12:51
15,Tuktoyaktuk,CA,69.4541,-133.0374,28.76,94,100,5.86,overcast clouds,2021-10-27 01:12:51
16,Ushuaia,AR,-54.8,-68.3,40.66,81,20,11.5,few clouds,2021-10-27 01:12:45
17,Carnarvon,AU,-24.8667,113.6333,66.87,54,99,12.93,overcast clouds,2021-10-27 01:12:52
18,Kodiak,US,57.79,-152.4072,39.27,52,90,16.11,overcast clouds,2021-10-27 01:09:06
19,Khani,GE,41.9563,42.9566,40.57,71,1,6.62,clear sky,2021-10-27 01:12:53
20,Albanel,CA,48.8832,-72.4487,39.42,70,100,6.73,overcast clouds,2021-10-27 01:12:53
21,Victoria,HK,22.2855,114.1577,80.26,78,98,3.0,overcast clouds,2021-10-27 01:12:53
22,Bredasdorp,ZA,-34.5322,20.0403,64.27,85,100,16.11,overcast clouds,2021-10-27 01:12:54
23,Bambous Virieux,MU,-20.3428,57.7575,72.21,67,40,13.98,scattered clouds,2021-10-27 01:12:54
24,Torbay,CA,47.6666,-52.7314,39.58,87,73,4.0,broken clouds,2021-10-27 01:12:55
25,Atuona,PF,-9.8,-139.0333,77.72,68,4,13.2,clear sky,2021-10-27 01:10:06
26,Dondo,MZ,-19.6094,34.7431,74.25,79,99,6.6,overcast clouds,2021-10-27 01:12:55
27,Jamestown,US,42.097,-79.2353,45.99,96,90,5.01,mist,2021-10-27 01:12:19
28,Saint-Francois,FR,46.4154,3.9054,40.48,100,90,2.3,mist,2021-10-27 01:12:56
29,Elat,IL,29.5581,34.9482,69.89,63,0,7.43,clear sky,2021-10-27 01:12:56
30,Tasiilaq,GL,65.6145,-37.6368,37.56,80,100,8.7,overcast clouds,2021-10-27 01:12:56
31,Chuy,UY,-33.6971,-53.4616,67.37,83,0,6.91,clear sky,2021-10-27 01:07:59
32,Bethel,US,41.3712,-73.414,58.57,92,90,1.99,moderate rain,2021-10-27 01:12:57
33,Aloleng,PH,16.1307,119.7824,82.99,68,62,5.88,broken clouds,2021-10-27 01:12:57
34,Port Lincoln,AU,-34.7333,135.8667,71.01,57,11,4.94,few clouds,2021-10-27 01:12:58
35,Airai,TL,-8.9266,125.4092,77.27,39,93,2.44,overcast clouds,2021-10-27 01:12:58
36,Alofi,NU,-19.0595,-169.9187,80.49,61,75,17.27,broken clouds,2021-10-27 01:12:59
37,Mandalgovi,MN,45.7625,106.2708,36.84,41,0,8.21,clear sky,2021-10-27 01:12:59
38,Sao Filipe,CV,14.8961,-24.4956,79.16,77,61,10.58,broken clouds,2021-10-27 01:12:59
39,Maarianhamina,AX,60.0973,19.9348,44.46,87,0,5.75,clear sky,2021-10-27 01:13:00
40,Qaanaaq,GL,77.484,-69.3632,19.67,94,100,13.44,light snow,2021-10-27 01:13:00
41,Pangkalanbuun,ID,-2.6833,111.6167,82.56,76,97,2.82,overcast clouds,2021-10-27 01:13:01
42,Butaritari,KI,3.0707,172.7902,82.67,74,14,10.42,few clouds,2021-10-27 01:13:01
43,Kapaa,US,22.0752,-159.319,84.18,68,1,3.0,clear sky,2021-10-27 01:13:02
44,Amuntai,ID,-2.4177,115.2494,84.74,72,48,1.77,scattered clouds,2021-10-27 01:13:02
45,Autazes,BR,-3.5797,-59.1306,75.45,95,90,1.19,overcast clouds,2021-10-27 01:13:02
46,Sechelt,CA,49.4664,-123.7694,54.01,84,11,10.38,few clouds,2021-10-27 01:13:03
47,Bengkulu,ID,-3.8004,102.2655,75.56,91,100,10.49,overcast clouds,2021-10-27 01:13:03
48,Hilo,US,19.7297,-155.09,80.33,74,20,8.05,few clouds,2021-10-27 01:10:57
49,Aswan,EG,24.0934,32.907,77.16,41,77,9.71,broken clouds,2021-10-27 01:13:04
50,Wadi Musa,JO,30.3222,35.4793,56.12,57,0,1.48,clear sky,2021-10-27 01:13:04
51,Funtua,NG,11.5233,7.3081,73.11,56,100,5.5,overcast clouds,2021-10-27 01:13:05
52,Paamiut,GL,61.994,-49.6678,37.27,56,0,8.46,clear sky,2021-10-27 01:13:05
53,Cape Town,ZA,-33.9258,18.4232,66.11,64,24,3.0,few clouds,2021-10-27 01:11:31
54,Lasa,IT,46.6166,10.7002,37.36,70,50,1.86,scattered clouds,2021-10-27 01:13:05
55,Chihuahua,MX,28.5,-106.0,77.83,29,0,37.29,clear sky,2021-10-27 01:10:23
56,Coffs Harbour,AU,-30.3,153.1333,79.12,64,40,17.27,scattered clouds,2021-10-27 01:13:06
57,Hermanus,ZA,-34.4187,19.2345,64.9,82,95,17.65,overcast clouds,2021-10-27 01:13:07
58,Urumqi,CN,43.801,87.6005,36.55,65,0,4.47,clear sky,2021-10-27 01:12:06
59,Kaitangata,NZ,-46.2817,169.8464,60.48,69,65,7.36,broken clouds,2021-10-27 01:13:07
60,Hobart,AU,-42.8794,147.3294,69.06,50,20,1.01,few clouds,2021-10-27 01:13:07
61,Campbell River,CA,50.0163,-125.2446,50.59,93,75,5.75,mist,2021-10-27 01:13:08
62,Khatanga,RU,71.9667,102.5,-5.78,100,98,1.88,overcast clouds,2021-10-27 01:13:08
63,Rorvik,NO,64.8621,11.2373,46.6,79,100,12.64,overcast clouds,2021-10-27 01:13:09
64,Yanam,IN,16.7333,82.2167,77.4,84,88,3.67,overcast clouds,2021-10-27 01:13:09
65,Fortuna,US,40.5982,-124.1573,57.54,73,90,1.01,light rain,2021-10-27 01:13:09
66,Biltine,TD,14.5333,20.9167,80.29,17,80,7.81,broken clouds,2021-10-27 01:08:52
67,Wum,CM,6.3833,10.0667,63.88,91,49,2.55,light rain,2021-10-27 01:13:10
68,Vanimo,PG,-2.6741,141.3028,84.43,71,96,8.63,overcast clouds,2021-10-27 01:13:10
69,Naze,JP,28.3667,129.4833,70.0,55,45,11.65,scattered clouds,2021-10-27 01:13:11
70,Cockburn Town,TC,21.4612,-71.1419,82.11,75,94,3.13,overcast clouds,2021-10-27 01:13:11
71,Chenghai,CN,23.4632,116.768,74.79,72,73,7.38,broken clouds,2021-10-27 01:13:12
72,Cagliliog,PH,13.9016,123.2913,81.57,82,88,11.16,overcast clouds,2021-10-27 01:13:12
73,Saskylakh,RU,71.9167,114.0833,1.24,97,100,2.08,overcast clouds,2021-10-27 01:13:13
74,Chumikan,RU,54.7183,135.315,36.64,98,100,2.91,light rain,2021-10-27 01:13:13
75,Karratha,AU,-20.7377,116.8463,80.15,22,0,8.66,clear sky,2021-10-27 01:13:13
76,Alice Springs,AU,-23.7,133.8833,94.55,20,19,25.32,few clouds,2021-10-27 01:13:14
77,Puerto Ayora,EC,-0.7393,-90.3518,68.56,92,95,3.0,overcast clouds,2021-10-27 01:11:27
78,Nouadhibou,MR,20.931,-17.0347,69.39,80,100,16.13,overcast clouds,2021-10-27 01:13:14
79,Phan Thiet,VN,10.9333,108.1,75.88,91,100,9.6,heavy intensity rain,2021-10-27 01:13:15
80,Luganville,VU,-15.5333,167.1667,83.98,72,39,9.35,scattered clouds,2021-10-27 01:13:15
81,Cherskiy,RU,68.75,161.3,-14.19,98,65,4.05,broken clouds,2021-10-27 01:13:16
82,Labuhan,ID,-6.8844,112.2051,84.51,68,100,7.11,overcast clouds,2021-10-27 01:13:16
83,Lebu,CL,-37.6167,-73.65,52.43,86,0,15.3,clear sky,2021-10-27 01:13:17
84,Beringovskiy,RU,63.05,179.3167,8.74,84,100,22.06,overcast clouds,2021-10-27 01:12:39
85,Ternate,ID,0.8,127.4,84.67,68,12,0.6,few clouds,2021-10-27 01:13:17
86,Ridgecrest,US,35.6225,-117.6709,64.26,30,1,1.01,clear sky,2021-10-27 01:13:18
87,Saint-Philippe,RE,-21.3585,55.7679,71.19,76,5,9.53,clear sky,2021-10-27 01:10:00
88,Leningradskiy,RU,69.3833,178.4167,9.23,92,100,22.55,light snow,2021-10-27 01:13:18
89,Coahuayana,MX,18.7333,-103.6833,81.88,88,99,1.07,overcast clouds,2021-10-27 01:10:49
90,Haysville,US,37.5645,-97.3523,69.58,77,75,13.0,broken clouds,2021-10-27 01:13:19
91,Viedma,AR,-40.8135,-62.9967,66.09,23,0,4.45,clear sky,2021-10-27 01:13:19
92,Barrow,US,71.2906,-156.7887,12.22,85,40,5.75,scattered clouds,2021-10-27 01:13:19
93,Havoysund,NO,70.9963,24.6622,32.88,60,94,28.05,overcast clouds,2021-10-27 01:13:20
94,Mahon,ES,39.8885,4.2658,63.16,72,40,11.5,scattered clouds,2021-10-27 01:13:20
95,Broome,US,42.2506,-75.833,55.85,80,90,1.01,light rain,2021-10-27 01:10:22
96,San Patricio,US,28.017,-97.5169,81.84,79,96,15.28,overcast clouds,2021-10-27 01:12:06
97,Wattegama,LK,6.7989,81.4808,74.93,89,80,1.45,broken clouds,2021-10-27 01:13:21
98,Port Elizabeth,ZA,-33.918,25.5701,67.1,85,95,22.28,overcast clouds,2021-10-27 01:13:22
99,Mangai,CD,-4.05,19.5333,68.58,99,100,1.07,light rain,2021-10-27 01:13:22
100,Atasu,KZ,48.6814,71.6433,36.18,87,100,13.18,overcast clouds,2021-10-27 01:13:22
101,Provideniya,RU,64.3833,-173.3,19.51,68,90,8.95,light snow,2021-10-27 01:13:23
102,Vaini,TO,-21.2,-175.2,78.96,78,20,14.97,few clouds,2021-10-27 01:11:48
103,Kaeo,NZ,-35.1,173.7833,67.28,65,100,6.22,overcast clouds,2021-10-27 01:10:03
104,Gigmoto,PH,13.7796,124.39,81.72,82,100,10.92,overcast clouds,2021-10-27 01:13:23
105,Oriximina,BR,-1.7656,-55.8661,79.59,74,64,2.46,broken clouds,2021-10-27 01:13:24
106,Vila Franca Do Campo,PT,37.7167,-25.4333,70.21,86,36,13.91,scattered clouds,2021-10-27 01:13:24
107,East London,ZA,-33.0153,27.9116,67.24,85,100,20.71,light rain,2021-10-27 01:11:21
108,Dudinka,RU,69.4058,86.1778,13.32,94,100,8.23,overcast clouds,2021-10-27 01:13:25
109,Kloulklubed,PW,7.0419,134.2556,86.5,72,52,8.63,broken clouds,2021-10-27 01:13:25
110,Hithadhoo,MV,-0.6,73.0833,83.75,69,100,15.35,overcast clouds,2021-10-27 01:13:25
111,Welkom,ZA,-27.9864,26.7066,57.34,76,98,10.07,overcast clouds,2021-10-27 01:13:26
112,Kavieng,PG,-2.5744,150.7967,85.42,65,96,3.74,overcast clouds,2021-10-27 01:13:26
113,Lerwick,GB,60.1545,-1.1494,53.6,90,100,21.72,overcast clouds,2021-10-27 01:13:27
114,Pochutla,MX,15.7432,-96.4661,81.82,87,100,5.03,overcast clouds,2021-10-27 01:13:27
115,Ulladulla,AU,-35.35,150.4667,76.77,46,5,7.56,clear sky,2021-10-27 01:13:28
116,Tabou,CI,4.423,-7.3528,76.77,89,100,5.61,overcast clouds,2021-10-27 01:13:28
117,Mabaruma,GY,8.2,-59.7833,73.72,99,100,3.06,overcast clouds,2021-10-27 01:13:28
118,Pisco,PE,-13.7,-76.2167,61.02,82,0,11.5,clear sky,2021-10-27 01:13:29
119,Avarua,CK,-21.2078,-159.775,78.85,65,40,13.8,scattered clouds,2021-10-27 01:13:29
120,San Quintin,MX,30.4833,-115.95,63.01,70,0,18.75,clear sky,2021-10-27 01:13:30
121,Longyearbyen,SJ,78.2186,15.6401,17.44,67,75,9.22,broken clouds,2021-10-27 01:13:30
122,Krasnoselkup,RU,65.7,82.4667,19.35,95,100,14.85,light snow,2021-10-27 01:09:52
123,Tiksi,RU,71.6872,128.8694,13.37,95,100,2.51,overcast clouds,2021-10-27 01:13:31
124,Socorro,US,31.6546,-106.3033,71.46,20,20,21.85,dust,2021-10-27 01:09:27
125,Ceyhan,TR,37.0247,35.8175,60.64,35,8,4.68,clear sky,2021-10-27 01:13:31
126,Salalah,OM,17.0151,54.0924,71.69,56,0,4.61,clear sky,2021-10-27 01:13:32
127,Ostersund,SE,63.1792,14.6357,37.85,81,100,10.36,overcast clouds,2021-10-27 01:13:32
128,Okhotsk,RU,59.3833,143.3,25.36,82,100,5.32,overcast clouds,2021-10-27 01:13:32
129,Touros,BR,-5.1989,-35.4608,76.1,74,26,14.9,scattered clouds,2021-10-27 01:13:33
130,Hambantota,LK,6.1241,81.1185,77.77,78,97,5.35,overcast clouds,2021-10-27 01:13:33
131,Norman Wells,CA,65.282,-126.8329,26.55,96,100,4.27,light snow,2021-10-27 01:13:33
132,San Luis,AR,-33.295,-66.3356,78.19,11,0,11.05,clear sky,2021-10-27 01:13:13
133,Arraial Do Cabo,BR,-22.9661,-42.0278,71.83,96,100,8.32,overcast clouds,2021-10-27 01:13:34
134,Port Blair,IN,11.6667,92.75,82.04,78,83,7.34,broken clouds,2021-10-27 01:11:37
135,Gornet,RO,45.1167,26.0667,39.09,84,0,3.49,clear sky,2021-10-27 01:13:35
136,Orissaare,EE,58.5592,23.0826,48.15,87,27,15.5,scattered clouds,2021-10-27 01:13:35
137,Lokosovo,RU,61.1333,74.8167,22.96,82,95,15.32,overcast clouds,2021-10-27 01:13:36
138,Port-Gentil,GA,-0.7193,8.7815,77.61,88,100,12.73,light rain,2021-10-27 01:13:36
139,Murzzuschlag,AT,47.6,15.6833,40.75,92,73,3.36,broken clouds,2021-10-27 01:13:37
140,Nantucket,US,41.2835,-70.0995,59.14,93,100,42.88,moderate rain,2021-10-27 01:13:37
141,Bam,IR,29.106,58.357,61.99,23,0,1.88,clear sky,2021-10-27 01:13:38
142,Ponta Do Sol,PT,32.6667,-17.1,68.72,62,6,3.8,clear sky,2021-10-27 01:13:38
143,Geraldton,AU,-28.7667,114.6,61.21,82,40,14.97,light intensity shower rain,2021-10-27 01:13:38
144,Saskatoon,CA,52.1168,-106.6345,45.16,81,100,5.01,overcast clouds,2021-10-27 01:10:00
145,Kinablangan,PH,7.6947,126.5503,84.06,70,100,3.11,overcast clouds,2021-10-27 01:13:39
146,Nadym,RU,65.5333,72.5167,16.59,94,81,9.6,broken clouds,2021-10-27 01:13:39
147,Nueva Loja,EC,0.0847,-76.8828,69.42,99,100,0.87,moderate rain,2021-10-27 01:13:40
148,Vardo,NO,70.3705,31.1107,35.19,57,100,23.82,light snow,2021-10-27 01:13:40
149,Tierralta,CO,8.1736,-76.0592,76.32,93,100,7.74,light rain,2021-10-27 01:13:40
150,Batsfjord,NO,70.6345,29.7185,31.71,67,100,18.41,overcast clouds,2021-10-27 01:13:41
151,Raudeberg,NO,61.9875,5.1352,50.86,86,100,13.0,moderate rain,2021-10-27 01:13:41
152,Xuddur,SO,4.1213,43.8894,72.1,80,5,10.58,clear sky,2021-10-27 01:13:42
153,Hamilton,US,39.1834,-84.5333,48.97,81,1,0.0,clear sky,2021-10-27 01:13:42
154,Oranjemund,NA,-28.55,16.4333,58.75,93,47,4.63,scattered clouds,2021-10-27 01:13:42
155,Millau,FR,44.0833,2.9167,43.0,92,5,3.15,clear sky,2021-10-27 01:13:43
156,Rumboci,BA,43.8322,17.5011,36.41,92,100,4.47,overcast clouds,2021-10-27 01:13:43
157,Pevek,RU,69.7008,170.3133,10.89,93,100,13.18,overcast clouds,2021-10-27 01:13:44
158,Kruisfontein,ZA,-34.0033,24.7314,64.89,83,97,17.31,overcast clouds,2021-10-27 01:13:44
159,Westport,US,41.1415,-73.3579,60.84,95,90,1.99,moderate rain,2021-10-27 01:13:45
160,Shimoda,JP,34.6667,138.95,62.1,73,94,1.72,overcast clouds,2021-10-27 01:09:53
161,Mar Del Plata,AR,-38.0023,-57.5575,55.42,76,0,0.0,clear sky,2021-10-27 01:09:23
162,Riyadh,SA,24.6877,46.7219,73.54,25,0,9.6,clear sky,2021-10-27 01:13:02
163,La Romana,DO,18.4273,-68.9728,82.13,94,20,0.0,few clouds,2021-10-27 01:13:46
164,Port Macquarie,AU,-31.4333,152.9167,76.89,54,5,12.41,clear sky,2021-10-27 01:13:46
165,Abha,SA,18.2164,42.5053,55.65,72,0,0.0,clear sky,2021-10-27 01:13:29
166,Shitanjing,CN,39.2342,106.3439,43.32,58,97,2.44,overcast clouds,2021-10-27 01:13:46
167,Novikovo,RU,51.1537,37.8879,32.97,49,76,8.5,broken clouds,2021-10-27 01:13:47
168,Flinders,AU,-34.5833,150.8552,76.8,68,3,7.0,clear sky,2021-10-27 01:13:47
169,Vallenar,CL,-28.5708,-70.7581,63.57,60,0,1.52,clear sky,2021-10-27 01:09:42
170,Georgetown,MY,5.4112,100.3354,82.33,78,20,2.3,few clouds,2021-10-27 01:11:26
171,Palembang,ID,-2.9167,104.7458,78.89,89,20,3.44,haze,2021-10-27 01:13:48
172,Saint George,US,37.1041,-113.5841,60.64,40,20,1.99,few clouds,2021-10-27 01:12:37
173,Talnakh,RU,69.4865,88.3972,10.62,92,100,3.96,overcast clouds,2021-10-27 01:13:49
174,Kalyazin,RU,57.2403,37.8433,34.05,88,100,9.62,overcast clouds,2021-10-27 01:13:49
175,Bathsheba,BB,13.2167,-59.5167,81.21,78,20,18.41,few clouds,2021-10-27 01:13:49
176,Forestville,US,38.8451,-76.875,54.09,66,20,14.97,few clouds,2021-10-27 01:13:50
177,Brigantine,US,39.4101,-74.3646,54.05,75,90,20.71,overcast clouds,2021-10-27 01:13:50
178,Dvinskoy,RU,62.1535,45.1175,35.49,98,100,6.89,overcast clouds,2021-10-27 01:13:50
179,Iqaluit,CA,63.7506,-68.5145,27.7,86,100,8.99,overcast clouds,2021-10-27 01:13:51
180,Surt,LY,31.2089,16.5887,71.91,70,85,13.33,overcast clouds,2021-10-27 01:13:51
181,Ostrovnoy,RU,68.0531,39.5131,30.96,84,100,18.88,light snow,2021-10-27 01:13:52
182,Sistranda,NO,63.7256,8.834,45.9,72,100,21.92,light rain,2021-10-27 01:13:52
183,Severo-Kurilsk,RU,50.6789,156.125,46.38,85,100,6.24,overcast clouds,2021-10-27 01:13:52
184,Puerto Narino,CO,-3.7703,-70.3831,76.95,99,91,2.35,overcast clouds,2021-10-27 01:13:53
185,Santa Rita,BR,-7.1139,-34.9781,75.87,88,75,4.61,broken clouds,2021-10-27 01:13:53
186,Livingston,GB,55.9029,-3.5226,57.33,91,40,14.97,scattered clouds,2021-10-27 01:13:54
187,Souillac,MU,-20.5167,57.5167,72.36,69,59,12.5,broken clouds,2021-10-27 01:13:54
188,Sur,OM,22.5667,59.5289,78.21,74,0,9.17,clear sky,2021-10-27 01:13:54
189,Arcata,US,40.8665,-124.0828,57.81,70,90,1.01,mist,2021-10-27 01:09:29
190,Ramshir,IR,30.8946,49.4092,71.38,18,0,4.32,clear sky,2021-10-27 01:13:55
191,Iquitos,PE,-3.7481,-73.2472,75.24,88,90,2.3,overcast clouds,2021-10-27 01:13:56
192,Ullapool,GB,57.8987,-5.1604,55.35,88,32,14.25,scattered clouds,2021-10-27 01:13:56
193,Barinas,VE,8.6226,-70.2075,73.81,91,99,4.88,overcast clouds,2021-10-27 01:13:56
194,Bay Roberts,CA,47.5999,-53.2648,40.33,89,7,1.01,clear sky,2021-10-27 01:13:57
195,Salt,JO,32.0392,35.7272,58.28,58,0,1.1,clear sky,2021-10-27 01:13:57
196,Alihe,CN,50.5667,123.7167,42.33,61,12,8.95,few clouds,2021-10-27 01:13:57
197,Beira,MZ,-19.8436,34.8389,76.42,76,100,12.37,overcast clouds,2021-10-27 01:13:58
198,New Norfolk,AU,-42.7826,147.0587,68.72,36,0,3.27,clear sky,2021-10-27 01:13:58
199,Ust-Omchug,RU,61.15,149.6333,10.29,87,25,1.16,scattered clouds,2021-10-27 01:13:59
200,Iseyin,NG,7.9667,3.6,72.79,95,48,3.6,scattered clouds,2021-10-27 01:13:59
201,Biak,ID,-0.9131,122.8766,84.0,66,19,1.77,few clouds,2021-10-27 01:13:59
202,Albany,US,42.6001,-73.9662,53.8,94,100,1.01,light rain,2021-10-27 01:10:29
203,Harper,LR,4.375,-7.7169,76.96,89,96,6.29,overcast clouds,2021-10-27 01:14:00
204,Santa Maria,BR,-29.6842,-53.8069,67.48,67,0,2.55,clear sky,2021-10-27 01:14:01
205,Chulman,RU,56.8479,124.9104,28.45,89,98,14.05,light snow,2021-10-27 01:14:01
206,Severobaykalsk,RU,55.65,109.3167,32.27,82,95,3.33,overcast clouds,2021-10-27 01:14:02
207,Ribeira Grande,PT,38.5167,-28.7,70.57,88,100,23.89,overcast clouds,2021-10-27 01:13:13
208,Olafsvik,IS,64.8945,-23.7142,41.81,87,100,37.85,light rain,2021-10-27 01:14:02
209,Sao Joao Da Barra,BR,-21.6403,-41.0511,73.15,93,100,4.45,overcast clouds,2021-10-27 01:11:28
210,Guerrero Negro,MX,27.9769,-114.0611,66.43,69,0,16.78,clear sky,2021-10-27 01:14:03
211,Mahebourg,MU,-20.4081,57.7,72.25,67,59,14.05,broken clouds,2021-10-27 01:14:03
212,Constantine,DZ,36.365,6.6147,54.93,86,100,0.76,overcast clouds,2021-10-27 01:14:04
213,Belmonte,BR,-15.8631,-38.8828,77.5,84,5,9.22,clear sky,2021-10-27 01:10:34
214,Makakilo City,US,21.3469,-158.0858,84.52,52,1,11.5,clear sky,2021-10-27 01:12:09
215,Hearst,CA,49.6835,-83.6665,34.27,91,61,4.05,broken clouds,2021-10-27 01:14:05
216,Nizhniy Kuranakh,RU,58.8353,125.4869,32.95,95,100,9.1,light snow,2021-10-27 01:14:05
217,Necochea,AR,-38.5473,-58.7368,59.04,44,0,10.2,clear sky,2021-10-27 01:14:05
218,Promyshlennyy,RU,67.5833,63.9167,11.52,96,53,8.61,broken clouds,2021-10-27 01:14:06
219,Batan,CR,10.0844,-83.341,77.81,88,89,2.33,overcast clouds,2021-10-27 01:14:06
220,Margarita,PA,9.3314,-79.8889,78.12,91,100,1.99,overcast clouds,2021-10-27 01:14:06
221,Vzmorye,RU,54.6961,20.2361,50.09,90,14,12.73,few clouds,2021-10-27 01:14:07
222,Faanui,PF,-16.4833,-151.75,79.74,72,15,7.85,few clouds,2021-10-27 01:14:07
223,Nemuro,JP,43.3236,145.575,53.65,76,1,4.5,clear sky,2021-10-27 01:14:08
224,Axim,GH,4.8699,-2.2405,77.67,87,99,4.81,overcast clouds,2021-10-27 01:14:08
225,Broken Hill,AU,-31.95,141.4333,85.12,10,3,19.69,clear sky,2021-10-27 01:14:08
226,Cervo,ES,43.6702,-7.4101,44.19,65,58,4.61,broken clouds,2021-10-27 01:14:09
227,Saint-Pierre,RE,-21.3393,55.4781,71.28,55,0,8.05,clear sky,2021-10-27 01:14:09
228,Nador,MA,35.174,-2.9287,66.45,88,40,6.91,scattered clouds,2021-10-27 01:14:10
229,Poya,NC,-21.35,165.15,81.16,62,100,7.14,overcast clouds,2021-10-27 01:10:08
230,Mallapuram,IN,11.9667,78.25,70.84,92,80,3.29,broken clouds,2021-10-27 01:14:10
231,Avera,US,33.194,-82.5271,62.71,60,0,6.04,clear sky,2021-10-27 01:14:10
232,Corning,US,42.1428,-77.0547,53.91,90,90,16.11,light rain,2021-10-27 01:10:01
233,Atar,MR,20.5169,-13.0499,82.22,27,99,15.37,overcast clouds,2021-10-27 01:14:11
234,Kuteynykove,UA,47.8123,38.2882,32.29,48,6,5.06,clear sky,2021-10-27 01:14:11
235,Lata,PT,40.1629,-8.3327,59.81,66,60,3.94,broken clouds,2021-10-27 01:14:12
236,Codrington,AU,-38.2667,141.9667,71.1,47,4,19.28,clear sky,2021-10-27 01:14:12
237,Puerto Leguizamo,CO,-0.1934,-74.7819,70.65,99,100,1.54,overcast clouds,2021-10-27 01:14:13
238,Nome,US,64.5011,-165.4064,24.87,74,90,8.05,overcast clouds,2021-10-27 01:14:13
239,Huarmey,PE,-10.0681,-78.1522,64.17,84,78,10.33,broken clouds,2021-10-27 01:14:13
240,Bilma,NE,18.6853,12.9164,79.23,16,0,4.72,clear sky,2021-10-27 01:14:14
241,Sitka,US,57.0531,-135.33,49.89,57,75,8.05,light rain,2021-10-27 01:14:14
242,Buchanan,LR,5.8808,-10.0467,77.13,88,97,1.81,overcast clouds,2021-10-27 01:12:25
243,Pathanamthitta,IN,9.2667,76.7833,74.12,95,100,2.55,overcast clouds,2021-10-27 01:13:31
244,Mungwi,ZM,-10.1732,31.3694,67.46,62,4,5.77,clear sky,2021-10-27 01:14:15
245,Rondonopolis,BR,-16.4708,-54.6356,76.46,80,61,1.63,broken clouds,2021-10-27 01:14:15
246,Half Moon Bay,US,37.4636,-122.4286,66.38,68,90,4.61,mist,2021-10-27 01:14:16
247,Margate,GB,51.3813,1.3862,61.03,83,99,4.0,overcast clouds,2021-10-27 01:09:58
248,Atocha,BO,-20.9333,-66.2333,44.6,44,7,11.72,clear sky,2021-10-27 01:14:16
249,Tilichiki,RU,60.4667,166.1,9.99,84,5,5.75,clear sky,2021-10-27 01:14:17
250,Zhireken,RU,52.8249,117.3076,34.47,61,9,3.98,clear sky,2021-10-27 01:14:17
251,Rocha,UY,-34.4833,-54.3333,65.8,83,0,4.76,clear sky,2021-10-27 01:14:18
252,Sinegorye,RU,62.0788,150.477,11.3,84,15,1.36,few clouds,2021-10-27 01:14:18
253,Griffith,US,41.5284,-87.4237,50.11,80,1,4.61,clear sky,2021-10-27 01:14:18
254,Acarau,BR,-2.8856,-40.12,80.06,77,6,17.22,clear sky,2021-10-27 01:14:19
255,Manokwari,ID,-0.8667,134.0833,83.41,70,93,5.32,overcast clouds,2021-10-27 01:14:19
256,Henties Bay,NA,-22.116,14.2845,58.86,83,96,2.01,overcast clouds,2021-10-27 01:14:20
257,Kholodnyy,RU,62.7167,147.95,1.98,92,91,1.1,overcast clouds,2021-10-27 01:14:20
258,Kearney,US,40.6995,-99.0815,64.96,94,90,24.16,overcast clouds,2021-10-27 01:14:20
259,Waipawa,NZ,-41.4122,175.5153,59.45,48,100,9.46,light rain,2021-10-27 01:14:21
260,Karpathos,GR,35.507,27.2132,62.56,77,88,3.44,overcast clouds,2021-10-27 01:14:21
261,Grindavik,IS,63.8424,-22.4338,45.07,76,90,34.52,overcast clouds,2021-10-27 01:14:22
262,Rioja,AR,-29.4111,-66.8507,81.97,11,100,4.72,overcast clouds,2021-10-27 01:13:38
263,Sakakah,SA,29.9697,40.2064,68.13,32,5,6.91,clear sky,2021-10-27 01:14:22
264,Tutoia,BR,-2.7619,-42.2744,80.47,82,6,15.55,clear sky,2021-10-27 01:14:23
265,Yomou,GN,7.5603,-9.2653,69.15,99,97,1.07,overcast clouds,2021-10-27 01:14:23
266,Tahta,EG,26.7693,31.5021,71.44,31,0,6.06,clear sky,2021-10-27 01:14:23
267,Castro,BR,-24.7911,-50.0119,58.57,93,90,7.11,overcast clouds,2021-10-27 01:14:24
268,Abu Dhabi,AE,24.4667,54.3667,82.42,61,0,3.44,clear sky,2021-10-27 01:13:12
269,Locri,IT,38.2414,16.2623,64.81,87,100,8.01,overcast clouds,2021-10-27 01:14:24
270,Ribeira Brava,PT,32.65,-17.0667,68.72,63,6,4.27,clear sky,2021-10-27 01:14:25
271,Kabelvag,NO,68.2114,14.4817,46.53,91,100,0.74,overcast clouds,2021-10-27 01:14:25
272,Constitucion,CL,-35.3333,-72.4167,53.2,89,9,14.94,clear sky,2021-10-27 01:14:25
273,Mayya,RU,61.7333,130.2811,22.32,90,99,4.5,overcast clouds,2021-10-27 01:12:23
274,Thompson,CA,55.7435,-97.8558,37.56,93,90,5.75,overcast clouds,2021-10-27 01:14:26
275,Chaoyang,CN,41.5703,120.4586,51.67,36,0,5.48,clear sky,2021-10-27 01:14:26
276,Conde,BR,-7.2597,-34.9075,74.66,88,75,4.61,broken clouds,2021-10-27 01:14:27
277,Vitim,RU,59.4511,112.5578,23.27,87,100,3.47,overcast clouds,2021-10-27 01:14:27
278,Umm Lajj,SA,25.0213,37.2685,79.36,53,99,6.24,overcast clouds,2021-10-27 01:14:28
279,Saint-Augustin,CA,51.226,-58.6502,38.93,72,11,6.04,few clouds,2021-10-27 01:14:28
280,Pangnirtung,CA,66.1451,-65.7125,26.02,90,93,7.25,overcast clouds,2021-10-27 01:11:17
281,Adrar,MR,20.5022,-10.0711,77.45,33,31,11.56,scattered clouds,2021-10-27 01:14:29
282,Esperance,AU,-33.8667,121.9,59.88,54,100,8.43,light rain,2021-10-27 01:14:29
283,Puerto El Triunfo,SV,13.2833,-88.55,80.76,84,22,1.97,few clouds,2021-10-27 01:14:29
284,Te Anau,NZ,-45.4167,167.7167,61.47,58,99,3.29,moderate rain,2021-10-27 01:14:30
285,Dzheyrakh,RU,42.8228,44.6756,24.19,55,1,4.97,clear sky,2021-10-27 01:14:30
286,Astaneh-Ye Ashrafiyeh,IR,37.2596,49.9444,50.45,92,100,5.26,overcast clouds,2021-10-27 01:14:31
287,Comodoro Rivadavia,AR,-45.8667,-67.5,66.06,34,0,27.63,clear sky,2021-10-27 01:14:31
288,Faya,SA,18.3851,42.4509,55.92,71,2,1.83,clear sky,2021-10-27 01:14:32
289,Cidreira,BR,-30.1811,-50.2056,68.61,73,0,11.18,clear sky,2021-10-27 01:14:32
290,Pueblo Nuevo,MX,23.3833,-105.3833,55.74,93,35,1.92,scattered clouds,2021-10-27 01:14:33
291,Kango,GA,0.1943,10.0951,71.89,98,96,0.22,overcast clouds,2021-10-27 01:14:33
292,Vostok,RU,46.4856,135.8833,37.36,94,100,2.89,overcast clouds,2021-10-27 01:14:33
293,Los Llanos De Aridane,ES,28.6585,-17.9182,65.95,73,75,5.99,broken clouds,2021-10-27 01:14:34
294,Anamur,TR,36.0751,32.8369,59.02,44,1,5.19,clear sky,2021-10-27 01:14:34
295,Cabo San Lucas,MX,22.8909,-109.9124,82.62,67,40,5.01,scattered clouds,2021-10-27 01:11:09
296,Ust-Kuyga,RU,70.0167,135.6,2.66,97,99,7.18,overcast clouds,2021-10-27 01:14:35
297,Sisimiut,GL,66.9395,-53.6735,19.96,59,26,8.34,scattered clouds,2021-10-27 01:14:35
298,Cabedelo,BR,-6.9811,-34.8339,75.87,73,6,11.99,clear sky,2021-10-27 01:14:35
299,Hasaki,JP,35.7333,140.8333,61.29,65,100,7.52,overcast clouds,2021-10-27 01:14:36
300,Puerto Carreno,CO,6.189,-67.4859,77.95,88,100,0.67,overcast clouds,2021-10-27 01:14:36
301,Cedar City,US,37.6775,-113.0619,42.19,64,1,5.75,clear sky,2021-10-27 01:11:47
302,Laguna,US,38.421,-121.4238,65.46,62,90,1.01,overcast clouds,2021-10-27 01:14:37
303,Waingapu,ID,-9.6567,120.2641,86.5,64,100,10.31,overcast clouds,2021-10-27 01:14:37
304,Mlimba,TZ,-8.8,35.8167,70.86,92,23,0.92,few clouds,2021-10-27 01:14:37
305,San Cristobal,VE,7.7669,-72.225,73.58,98,100,2.8,overcast clouds,2021-10-27 01:14:38
306,Ossora,RU,59.2353,163.0719,27.05,86,91,2.82,overcast clouds,2021-10-27 01:14:38
307,Nanortalik,GL,60.1432,-45.2371,35.78,64,100,4.23,overcast clouds,2021-10-27 01:14:39
308,Ladario,BR,-19.0047,-57.6017,77.29,47,100,2.24,overcast clouds,2021-10-27 01:14:39
309,Balikpapan,ID,-1.2675,116.8289,83.39,84,40,2.3,scattered clouds,2021-10-27 01:13:40
310,Camacha,PT,33.0833,-16.3333,65.62,68,40,12.66,scattered clouds,2021-10-27 01:14:39
311,Shieli,KZ,44.1667,66.75,43.29,80,42,7.47,scattered clouds,2021-10-27 01:14:40
312,Chiredzi,ZW,-21.05,31.6667,68.22,82,31,9.95,scattered clouds,2021-10-27 01:14:40
313,Roma,US,43.2128,-75.4557,56.12,94,90,8.05,moderate rain,2021-10-27 01:14:41
314,Bilkha,IN,21.4333,70.6,73.89,60,1,4.52,clear sky,2021-10-27 01:14:41
315,Gardez,AF,33.5974,69.2259,36.9,69,0,4.85,clear sky,2021-10-27 01:14:41
316,Padang,ID,-0.9492,100.3543,77.05,81,100,2.42,light rain,2021-10-27 01:13:29
317,Englewood,US,39.6478,-104.9878,53.31,70,90,1.01,light intensity drizzle,2021-10-27 01:10:17
318,Tuatapere,NZ,-46.1333,167.6833,61.66,72,95,2.46,overcast clouds,2021-10-27 01:14:43
319,Batemans Bay,AU,-35.7167,150.1833,78.19,49,7,7.92,clear sky,2021-10-27 01:14:43
320,Bellevue,US,47.6104,-122.2007,54.88,85,75,4.0,broken clouds,2021-10-27 01:09:55
321,Mossendjo,CG,-2.9506,12.7261,70.56,99,100,1.99,light rain,2021-10-27 01:14:44
322,Quang Ngai,VN,15.1167,108.8,77.43,94,100,8.59,heavy intensity rain,2021-10-27 01:14:44
323,Beloha,MG,-25.1667,45.05,71.2,89,81,10.11,broken clouds,2021-10-27 01:14:45
324,Harrai,IN,22.6167,79.2167,63.79,67,1,2.91,clear sky,2021-10-27 01:14:45
325,Pitimbu,BR,-7.4706,-34.8086,75.79,73,4,12.17,clear sky,2021-10-27 01:14:46
326,Grand Forks,US,47.9417,-97.4337,53.53,40,90,12.66,overcast clouds,2021-10-27 01:14:46
327,Isangel,VU,-19.55,169.2667,82.47,70,15,7.36,few clouds,2021-10-27 01:14:46
328,Ayan,RU,56.45,138.1667,36.12,99,100,12.8,light rain,2021-10-27 01:14:47
329,Libreville,GA,0.3925,9.4537,80.62,83,75,6.91,light rain,2021-10-27 01:11:32
330,Metu,ET,8.3,35.5833,54.32,98,14,3.44,few clouds,2021-10-27 01:14:47
331,Meylan,FR,45.2199,5.7901,54.95,88,27,1.81,scattered clouds,2021-10-27 01:14:48
332,Zhezkazgan,KZ,47.8043,67.7144,35.62,67,99,11.23,overcast clouds,2021-10-27 01:14:48
333,Severnyy,RU,50.677,36.5532,33.84,60,8,6.71,mist,2021-10-27 01:14:48
334,Mareeba,AU,-17.0,145.4333,88.32,52,6,9.62,clear sky,2021-10-27 01:14:49
335,Bonavista,CA,48.6499,-53.1147,40.12,72,6,9.55,clear sky,2021-10-27 01:10:24
336,Santa Cruz Del Sur,CU,20.7147,-77.9956,79.86,79,48,5.66,moderate rain,2021-10-27 01:14:49
337,Mecca,SA,21.4267,39.8261,79.29,54,12,2.8,few clouds,2021-10-27 01:11:48
338,Nogent-Le-Rotrou,FR,48.3333,1.0,45.64,93,53,5.82,broken clouds,2021-10-27 01:14:50
339,Lagoa,PT,39.05,-27.9833,69.35,87,100,30.78,overcast clouds,2021-10-27 01:14:50
340,Bowen,AU,-20.0167,148.2333,80.89,65,0,9.46,clear sky,2021-10-27 01:14:51
341,Horki,BY,54.2861,30.9842,38.52,69,100,11.65,overcast clouds,2021-10-27 01:14:51
342,Bubaque,GW,11.2833,-15.8333,82.0,74,98,6.44,overcast clouds,2021-10-27 01:14:51
343,Taltal,CL,-25.4,-70.4833,60.84,75,22,1.1,few clouds,2021-10-27 01:14:52
344,Berdigestyakh,RU,62.0989,126.6992,29.28,96,100,4.18,light snow,2021-10-27 01:14:52
345,Luanda,AO,-8.8368,13.2343,73.38,79,80,6.44,broken clouds,2021-10-27 01:14:53
346,Ambalavao,MG,-21.8333,46.9333,61.95,86,1,1.92,clear sky,2021-10-27 01:14:53
347,Kjollefjord,NO,70.9457,27.3465,32.31,63,98,21.54,overcast clouds,2021-10-27 01:14:53
348,Ask,NO,60.0717,11.0345,46.87,99,75,1.99,moderate rain,2021-10-27 01:14:54
349,Casper,US,42.8666,-106.3131,37.72,92,90,1.01,overcast clouds,2021-10-27 01:14:54
350,Kahului,US,20.8947,-156.47,87.06,74,40,19.57,scattered clouds,2021-10-27 01:14:43
351,San Jose,US,37.3394,-121.895,66.76,61,75,0.0,haze,2021-10-27 01:12:00
352,Daru,PG,-9.0763,143.2092,86.02,68,54,12.68,broken clouds,2021-10-27 01:14:55
353,Valparaiso,CL,-33.0393,-71.6273,53.24,93,75,8.05,broken clouds,2021-10-27 01:13:33
354,Saldanha,ZA,-33.0117,17.9442,64.54,65,98,7.43,overcast clouds,2021-10-27 01:14:55
355,Kieta,PG,-6.2167,155.6333,86.13,63,49,5.21,scattered clouds,2021-10-27 01:14:56
356,Seoul,KR,37.5683,126.9778,58.51,54,0,7.14,clear sky,2021-10-27 01:14:56
357,Kununurra,AU,-15.7667,128.7333,93.18,43,27,5.75,scattered clouds,2021-10-27 01:14:57
358,Istisu,AZ,40.9457,48.0738,36.27,72,17,5.84,few clouds,2021-10-27 01:14:57
359,Polunochnoye,RU,60.8697,60.4153,18.59,86,50,1.72,scattered clouds,2021-10-27 01:14:58
360,Camocim,BR,-2.9022,-40.8411,79.81,78,10,15.64,clear sky,2021-10-27 01:14:58
361,Kernersville,US,36.1199,-80.0736,51.84,61,1,1.99,clear sky,2021-10-27 01:14:58
362,Fort Nelson,CA,58.8053,-122.7002,37.8,82,100,1.95,overcast clouds,2021-10-27 01:14:59
363,Meulaboh,ID,4.1363,96.1285,77.56,86,100,4.27,overcast clouds,2021-10-27 01:14:59
364,Karakol,KG,42.4907,78.3936,36.01,49,72,5.53,broken clouds,2021-10-27 01:15:00
365,Yuzhno-Sukhokumsk,RU,44.6581,45.6436,36.57,61,0,6.82,clear sky,2021-10-27 01:15:00
366,Sao Felix Do Xingu,BR,-6.6447,-51.995,72.21,99,100,1.3,overcast clouds,2021-10-27 01:10:07
367,Luderitz,NA,-26.6481,15.1594,57.72,88,3,3.8,clear sky,2021-10-27 01:15:01
368,Sorland,NO,67.667,12.6934,46.74,87,26,13.91,light rain,2021-10-27 01:15:01
369,Sabha,LY,27.0377,14.4283,67.89,27,33,9.06,scattered clouds,2021-10-27 01:15:02
370,Panaba,MX,21.2833,-88.2667,80.35,81,100,6.35,overcast clouds,2021-10-27 01:15:03
371,Nishihara,JP,26.1842,127.7558,78.08,53,20,11.5,few clouds,2021-10-27 01:15:04
372,Hurghada,EG,27.2574,33.8129,72.41,51,0,14.56,clear sky,2021-10-27 01:13:30
373,Petropavlovsk-Kamchatskiy,RU,53.0452,158.6483,46.99,53,20,2.24,few clouds,2021-10-27 01:15:05
374,Grindsted,DK,55.754,8.9123,57.22,94,90,13.8,overcast clouds,2021-10-27 01:15:06
375,Quatre Cocos,MU,-20.2078,57.7625,72.09,68,6,14.07,clear sky,2021-10-27 01:15:06
376,Knoxville,US,35.9606,-83.9207,50.67,85,1,0.0,clear sky,2021-10-27 01:12:15
377,Derzhavinsk,KZ,51.1,66.3167,26.92,58,31,1.86,scattered clouds,2021-10-27 01:15:07
378,Erenhot,CN,43.6475,111.9767,41.54,39,0,6.98,clear sky,2021-10-27 01:11:53
379,Tevaitoa,PF,-16.7833,-151.5,79.59,73,17,8.34,few clouds,2021-10-27 01:15:08
380,Bud,US,39.447,-86.1758,46.58,90,0,5.77,clear sky,2021-10-27 01:15:08
381,Oksfjord,NO,70.2396,22.3479,32.92,92,87,8.79,light snow,2021-10-27 01:15:09
382,Auki,SB,-8.7676,160.7034,88.0,60,89,4.88,overcast clouds,2021-10-27 01:15:09
383,Saint-Ambroise,CA,48.5501,-71.3324,41.49,72,88,2.8,overcast clouds,2021-10-27 01:15:09
384,Portoferraio,IT,42.8115,10.3146,59.09,72,0,12.17,clear sky,2021-10-27 01:15:10
385,Ipu,BR,-4.3222,-40.7108,79.54,48,10,5.32,clear sky,2021-10-27 01:15:10
386,Sandwick,GB,60.0,-1.25,53.42,87,75,24.16,broken clouds,2021-10-27 01:15:11
387,Tura,IN,25.5198,90.2201,67.3,90,0,3.22,clear sky,2021-10-27 01:15:11
388,La Ronge,CA,55.1001,-105.2842,43.05,87,90,6.91,overcast clouds,2021-10-27 01:15:11
389,Tessalit,ML,20.1986,1.0114,81.0,18,75,8.28,broken clouds,2021-10-27 01:15:12
390,Caravelas,BR,-17.7125,-39.2481,75.31,82,9,6.42,clear sky,2021-10-27 01:15:12
391,Peniche,PT,39.3558,-9.3811,62.1,84,7,9.17,clear sky,2021-10-27 01:15:12
392,Karacakoy,TR,41.4029,28.3834,57.67,68,64,13.06,broken clouds,2021-10-27 01:15:13
393,Malanje,AO,-9.5402,16.341,64.11,95,92,1.5,overcast clouds,2021-10-27 01:15:13
394,Malaya Purga,RU,56.5567,53.0043,32.5,87,100,10.16,overcast clouds,2021-10-27 01:15:14
395,Payson,US,40.0444,-111.7321,45.95,64,90,8.05,overcast clouds,2021-10-27 01:11:09
396,Magadan,RU,59.5667,150.8,27.5,74,31,7.36,scattered clouds,2021-10-27 01:15:15
397,Sola,VU,-13.8833,167.55,81.07,77,1,11.74,clear sky,2021-10-27 01:15:15
398,Pontianak,ID,-0.0333,109.3333,82.38,83,20,4.61,few clouds,2021-10-27 01:15:15
399,Batagay,RU,67.6333,134.6333,7.68,91,61,3.04,broken clouds,2021-10-27 01:15:16
400,Vila Velha,BR,-20.3297,-40.2925,75.15,88,40,3.44,scattered clouds,2021-10-27 01:10:38
401,Vanino,RU,49.0869,140.2543,49.19,53,100,2.17,overcast clouds,2021-10-27 01:15:17
402,Ahipara,NZ,-35.1667,173.1667,67.42,69,100,6.38,overcast clouds,2021-10-27 01:15:17
403,Road Town,VG,18.4167,-64.6167,81.19,73,11,9.51,few clouds,2021-10-27 01:15:17
404,Birao,CF,10.2849,22.7882,74.61,45,91,2.8,overcast clouds,2021-10-27 01:15:18
405,Ojiya,JP,37.3,138.8,62.15,64,99,1.16,overcast clouds,2021-10-27 01:15:18
406,Kita,ML,13.0349,-9.4895,74.71,81,17,1.88,light rain,2021-10-27 01:15:19
407,Menongue,AO,-14.6585,17.691,64.98,77,77,6.91,broken clouds,2021-10-27 01:15:19
408,Puerto Del Rosario,ES,28.5004,-13.8627,67.75,68,81,8.05,broken clouds,2021-10-27 01:15:19
409,Zabol,AF,32.25,67.25,44.74,27,0,5.48,clear sky,2021-10-27 01:15:20
410,Namibe,AO,-15.1961,12.1522,63.93,75,75,8.05,broken clouds,2021-10-27 01:15:20
411,Roald,NO,62.5833,6.1333,47.08,87,90,19.57,moderate rain,2021-10-27 01:15:20
412,Bang Saphan,TH,11.2126,99.5117,76.95,84,100,4.76,overcast clouds,2021-10-27 01:15:21
413,Guane,CU,22.2025,-84.0875,77.74,88,100,1.43,overcast clouds,2021-10-27 01:15:21
414,Takoradi,GH,4.8845,-1.7554,76.93,89,100,4.43,overcast clouds,2021-10-27 01:15:22
415,Santa Adelia,BR,-21.2428,-48.8042,73.81,76,100,6.87,overcast clouds,2021-10-27 01:15:22
416,Kasongo-Lunda,CD,-6.4667,16.8167,69.12,98,100,0.58,overcast clouds,2021-10-27 01:15:22
417,Ixtapa,MX,20.7,-105.2,81.63,69,90,8.05,overcast clouds,2021-10-27 01:15:23
418,Samarai,PG,-10.6167,150.6667,83.12,76,29,10.54,scattered clouds,2021-10-27 01:12:30
419,Chanute,US,37.6792,-95.4572,66.31,82,75,13.8,broken clouds,2021-10-27 01:15:24
420,Talaja,IN,21.35,72.05,77.49,60,1,8.12,clear sky,2021-10-27 01:15:24
421,Balkhash,KZ,46.844,74.9804,41.61,60,0,13.42,clear sky,2021-10-27 01:15:25
422,Moen,NO,69.1304,18.6123,33.87,86,100,8.05,light snow,2021-10-27 01:15:25
423,Boyolangu,ID,-8.1181,111.8935,80.31,80,100,5.86,overcast clouds,2021-10-27 01:15:25
424,Dubbo,AU,-32.25,148.6167,77.13,27,0,5.75,clear sky,2021-10-27 01:15:26
425,Casablanca,MA,33.5928,-7.6192,61.75,84,0,3.18,clear sky,2021-10-27 01:15:26
426,Korla,CN,41.7597,86.1469,43.92,44,0,3.78,clear sky,2021-10-27 01:15:27
427,Camajuani,CU,22.4833,-79.75,77.14,100,20,3.44,light rain,2021-10-27 01:15:27
428,Port Hardy,CA,50.6996,-127.4199,48.2,93,90,3.44,light intensity shower rain,2021-10-27 01:15:28
429,Tyukalinsk,RU,55.8732,72.1967,27.7,72,98,10.25,overcast clouds,2021-10-27 01:15:28
430,San Lorenzo,PY,-25.3333,-57.5333,68.94,73,0,0.0,clear sky,2021-10-27 01:12:44
431,El Uvito,CO,7.2429,-72.6294,55.26,99,100,2.86,moderate rain,2021-10-27 01:15:29
432,Sokoto,NG,13.0609,5.239,81.66,29,11,5.99,few clouds,2021-10-27 01:15:29
433,Damaturu,NG,11.747,11.9608,79.93,20,94,5.5,overcast clouds,2021-10-27 01:15:30
434,Erzin,TR,36.9559,36.2,54.12,35,7,5.23,clear sky,2021-10-27 01:11:39
435,Clyde River,CA,70.4692,-68.5914,22.51,82,100,4.32,overcast clouds,2021-10-27 01:15:31
436,Evensk,RU,61.95,159.2333,14.23,74,0,5.77,clear sky,2021-10-27 01:15:31
437,Randolph,US,35.7001,-79.8164,53.76,55,1,6.91,clear sky,2021-10-27 01:15:32
438,Kazuno,JP,40.1836,140.7872,61.41,73,100,4.92,light rain,2021-10-27 01:15:32
439,Katsuura,JP,35.1333,140.3,64.11,80,100,8.63,light rain,2021-10-27 01:15:33
440,Maragogi,BR,-9.0122,-35.2225,76.59,77,0,8.66,clear sky,2021-10-27 01:15:33
441,Zapolyarnyy,RU,69.4154,30.8136,29.48,86,100,9.4,overcast clouds,2021-10-27 01:15:33
442,Praya,CV,14.9215,-23.5087,77.54,83,0,11.5,clear sky,2021-10-27 01:15:34
443,Ilulissat,GL,69.2167,-51.1,12.22,57,0,5.75,clear sky,2021-10-27 01:15:34
444,Miri,MY,4.4148,114.0089,86.14,74,20,6.91,few clouds,2021-10-27 01:15:35
445,Antalaha,MG,-14.9003,50.2788,69.37,81,2,6.91,clear sky,2021-10-27 01:15:35
446,Khandyga,RU,62.6667,135.6,30.29,96,100,1.92,overcast clouds,2021-10-27 01:13:09
447,Chardara,KZ,41.2547,67.9692,57.24,36,100,3.67,overcast clouds,2021-10-27 01:15:36
448,Koulikoro,ML,14.0,-7.75,79.21,53,32,9.53,scattered clouds,2021-10-27 01:15:36
449,Rapid Valley,US,44.0625,-103.1463,45.07,76,90,1.99,overcast clouds,2021-10-27 01:15:36
450,Amga,RU,60.8953,131.9608,32.77,87,89,3.15,overcast clouds,2021-10-27 01:15:37
451,Vidisha,IN,23.5333,77.8167,67.33,68,53,5.68,broken clouds,2021-10-27 01:15:37
452,Saint Anthony,US,45.0205,-93.218,52.3,53,1,4.0,clear sky,2021-10-27 01:15:38
453,Mbalmayo,CM,3.5167,11.5,67.96,99,100,2.89,overcast clouds,2021-10-27 01:15:38
454,Coihaique,CL,-45.5752,-72.0662,53.55,66,90,4.61,overcast clouds,2021-10-27 01:15:02
455,Kharp,RU,66.8014,65.8081,12.78,89,95,7.92,overcast clouds,2021-10-27 01:15:39
456,Goure,NE,13.9835,10.2704,84.02,18,37,5.95,scattered clouds,2021-10-27 01:15:39
457,Yuma,US,32.7253,-114.6244,75.97,19,20,8.05,few clouds,2021-10-27 01:13:25
458,Usinsk,RU,65.9939,57.5281,1.49,100,91,4.92,overcast clouds,2021-10-27 01:15:39
459,Nizwa,OM,22.9333,57.5333,73.11,66,0,2.42,clear sky,2021-10-27 01:15:40
460,Bassar,TG,9.25,0.7833,74.43,82,100,3.74,overcast clouds,2021-10-27 01:15:40
461,Hami,CN,42.8,93.45,47.68,33,0,1.61,clear sky,2021-10-27 01:15:41
462,Tiznit,MA,29.5833,-9.5,59.59,77,2,2.44,clear sky,2021-10-27 01:15:41
463,Dzhebariki-Khaya,RU,62.2167,135.8,31.75,96,99,1.5,light snow,2021-10-27 01:15:41
464,Deputatskiy,RU,69.3,139.9,3.09,92,99,2.86,overcast clouds,2021-10-27 01:15:42
465,Srednekolymsk,RU,67.45,153.6833,0.05,93,32,2.77,scattered clouds,2021-10-27 01:15:42
466,Navalgund,IN,15.5667,75.3667,67.1,71,5,7.9,clear sky,2021-10-27 01:15:43
467,Barreirinha,BR,-2.7933,-57.07,80.76,74,94,3.31,light rain,2021-10-27 01:15:43
468,Baghdad,IQ,33.3406,44.4009,60.71,51,0,1.14,clear sky,2021-10-27 01:15:20
469,Thinadhoo,MV,0.5333,72.9333,83.82,70,72,15.14,moderate rain,2021-10-27 01:15:44
470,Labuan,MY,5.2767,115.2417,86.36,74,20,2.3,few clouds,2021-10-27 01:15:44
471,Koulamoutou,GA,-1.1303,12.4736,70.54,99,95,1.79,overcast clouds,2021-10-27 01:15:45
472,Charters Towers,AU,-20.1,146.2667,90.48,34,3,12.66,clear sky,2021-10-27 01:15:45
473,Santarem,BR,-2.4431,-54.7083,78.93,83,20,2.3,light rain,2021-10-27 01:15:46
474,Yoichi,JP,43.2039,140.7703,55.44,67,14,5.77,few clouds,2021-10-27 01:15:46
475,Ngunguru,NZ,-35.6167,174.5,65.73,70,100,11.21,overcast clouds,2021-10-27 01:15:46
476,Jinxiang,CN,27.4327,120.6062,65.39,90,100,7.09,overcast clouds,2021-10-27 01:15:47
477,Venado Tuerto,AR,-33.7456,-61.9688,71.76,26,5,10.38,clear sky,2021-10-27 01:15:47
478,Delmas,HT,18.5447,-72.3028,83.12,65,20,3.44,few clouds,2021-10-27 01:15:47
479,Mehamn,NO,71.0357,27.8492,32.85,60,100,21.23,overcast clouds,2021-10-27 01:15:48
480,Kavaratti,IN,10.5669,72.642,81.3,77,100,12.66,overcast clouds,2021-10-27 01:15:48
481,Hutchinson,US,38.0608,-97.9298,69.53,79,64,4.0,broken clouds,2021-10-27 01:13:04
482,Svetlyy,RU,54.675,20.1347,48.25,90,14,13.89,few clouds,2021-10-27 01:15:49
483,Santiago Del Estero,AR,-27.7951,-64.2615,83.8,10,12,13.4,few clouds,2021-10-27 01:15:49
484,Payo,ID,-3.7508,103.6372,81.34,72,82,0.65,light rain,2021-10-27 01:15:50
485,Birjand,IR,32.8663,59.2211,45.07,29,0,6.91,clear sky,2021-10-27 01:15:50
486,Cayenne,GF,4.9333,-52.3333,81.09,87,20,5.01,few clouds,2021-10-27 01:15:50
487,Dingle,PH,10.9995,122.6711,83.01,79,68,8.75,broken clouds,2021-10-27 01:15:51
488,Narrabri,AU,-30.3167,149.7833,83.52,39,0,4.0,clear sky,2021-10-27 01:15:51
489,Kibala,TD,9.1104,18.3463,76.95,83,0,0.0,clear sky,2021-10-27 01:15:52
490,Xai-Xai,MZ,-25.0519,33.6442,69.91,89,20,8.23,few clouds,2021-10-27 01:15:52
491,Sobolevo,RU,54.4299,31.8996,38.23,68,100,11.41,overcast clouds,2021-10-27 01:15:53
492,Yerbogachen,RU,61.2767,108.0108,26.15,81,100,11.48,overcast clouds,2021-10-27 01:15:53
493,Tigil,RU,57.8,158.6667,32.65,100,100,2.01,light snow,2021-10-27 01:12:54
494,Amot,NO,59.5714,7.9877,43.52,99,100,4.41,overcast clouds,2021-10-27 01:15:54
495,Selenduma,RU,50.9131,106.2406,35.67,65,14,5.12,few clouds,2021-10-27 01:15:54
496,Lompoc,US,34.6391,-120.4579,68.56,70,1,12.66,clear sky,2021-10-27 01:13:42
497,Tambura,SS,5.6,27.4667,66.97,96,100,3.11,overcast clouds,2021-10-27 01:15:55
498,Iskateley,RU,67.6803,53.1512,14.76,93,8,5.21,clear sky,2021-10-27 01:15:55
499,Portland,US,45.5234,-122.6762,56.21,90,75,1.01,broken clouds,2021-10-27 01:15:55
500,Mount Gambier,AU,-37.8333,140.7667,75.11,23,100,24.16,overcast clouds,2021-10-27 01:15:56
501,Mount Vernon,US,40.9126,-73.8371,60.69,90,90,1.01,moderate rain,2021-10-27 01:13:05
502,Wonthaggi,AU,-38.6044,145.5913,78.06,49,0,5.03,clear sky,2021-10-27 01:15:57
503,Fairbanks,US,64.8378,-147.7164,32.09,91,90,3.44,overcast clouds,2021-10-27 01:14:30
504,Idritsa,RU,56.3316,28.8988,41.23,87,100,8.99,moderate rain,2021-10-27 01:15:57
505,Skelleftea,SE,64.7507,20.9528,33.01,69,90,3.44,fog,2021-10-27 01:15:58
506,Tomatlan,MX,19.9333,-105.25,76.19,92,35,3.2,scattered clouds,2021-10-27 01:15:58
507,Kysyl-Syr,RU,63.8986,122.7617,19.96,92,100,8.93,overcast clouds,2021-10-27 01:15:59
508,Gat,IL,31.61,34.7642,66.4,72,0,4.45,clear sky,2021-10-27 01:14:01
509,Hazorasp,UZ,41.3194,61.0742,44.44,66,100,10.16,overcast clouds,2021-10-27 01:15:59
510,Whyalla,AU,-33.0333,137.5833,67.89,64,75,4.61,thunderstorm,2021-10-27 01:16:00
511,Coquimbo,CL,-29.9533,-71.3436,55.13,94,20,5.75,few clouds,2021-10-27 01:12:42
512,Sinnamary,GF,5.3833,-52.95,78.31,90,90,10.42,overcast clouds,2021-10-27 01:16:00
513,Ribas Do Rio Pardo,BR,-20.4431,-53.7592,73.54,79,100,3.96,overcast clouds,2021-10-27 01:12:24
514,Arys,KZ,42.4252,68.795,55.62,36,100,5.21,overcast clouds,2021-10-27 01:16:01
515,Shibetsu,JP,43.659,145.132,59.7,67,40,4.61,scattered clouds,2021-10-27 01:16:02
516,Salinas,US,36.6777,-121.6555,65.7,60,1,6.91,clear sky,2021-10-27 01:15:25
517,Lorengau,PG,-2.0226,147.2712,85.95,65,11,4.88,few clouds,2021-10-27 01:16:03
518,Fonte Boa,BR,-2.4959,-66.2662,73.45,98,100,2.44,overcast clouds,2021-10-27 01:16:03
519,Skoghall,SE,59.3232,13.4655,43.36,100,87,6.91,light rain,2021-10-27 01:16:03
520,Streator,US,41.1209,-88.8354,48.63,92,0,6.8,clear sky,2021-10-27 01:16:04
521,Lavrentiya,RU,65.5833,-171.0,13.98,72,96,6.04,overcast clouds,2021-10-27 01:16:04
522,Seda,LV,57.65,25.75,46.33,94,100,9.1,overcast clouds,2021-10-27 01:16:05
523,Macae,BR,-22.3708,-41.7869,73.15,100,90,3.44,overcast clouds,2021-10-27 01:16:05
524,Goya,AR,-29.14,-59.2626,68.9,51,0,5.95,clear sky,2021-10-27 01:16:06
525,Stromness,GB,58.965,-3.296,53.87,85,12,11.99,few clouds,2021-10-27 01:16:06
526,Alexandria,EG,31.2156,29.9553,70.41,73,83,7.61,broken clouds,2021-10-27 01:14:52
527,Goderich,CA,43.7501,-81.7165,46.9,83,100,20.04,overcast clouds,2021-10-27 01:12:20
528,Dekalb,US,33.7504,-84.2333,56.35,74,1,5.75,clear sky,2021-10-27 01:16:07
529,Thetford Mines,CA,46.0913,-71.3013,48.27,81,100,13.13,overcast clouds,2021-10-27 01:16:07
530,Soligalich,RU,59.0778,42.2864,34.2,96,100,7.09,overcast clouds,2021-10-27 01:16:07
531,Mount Isa,AU,-20.7333,139.5,96.57,23,0,5.75,clear sky,2021-10-27 01:12:55
532,Luoyang,CN,34.6836,112.4536,59.31,60,100,2.19,overcast clouds,2021-10-27 01:16:08
533,Tamiahua,MX,21.2667,-97.45,79.61,91,85,9.15,overcast clouds,2021-10-27 01:16:08
534,La Palma,US,33.8464,-118.0467,70.93,57,1,3.0,clear sky,2021-10-27 01:11:38
535,Briancon,FR,44.9,6.65,38.86,86,4,3.49,clear sky,2021-10-27 01:16:09
536,Whitehorse,CA,60.7161,-135.0538,32.77,86,90,0.0,light snow,2021-10-27 01:11:14
537,San Vicente,AR,-26.6167,-54.1333,62.67,77,100,2.84,overcast clouds,2021-10-27 01:16:10
538,Kerrville,US,30.0474,-99.1403,77.13,84,75,1.01,broken clouds,2021-10-27 01:16:10
539,Porbandar,IN,21.6422,69.6093,77.7,56,0,8.23,clear sky,2021-10-27 01:16:10
540,Baykit,RU,61.67,96.37,35.44,83,100,14.0,moderate rain,2021-10-27 01:16:11
541,Male,MV,4.1748,73.5089,81.61,76,99,12.1,overcast clouds,2021-10-27 01:11:13
542,Aguimes,ES,27.9054,-15.4461,66.83,70,20,11.5,few clouds,2021-10-27 01:16:12
543,Yafran,LY,32.0633,12.5286,59.68,82,97,8.16,overcast clouds,2021-10-27 01:16:12
544,Narsaq,GL,60.9167,-46.05,32.22,59,89,8.01,overcast clouds,2021-10-27 01:16:12
545,Tartagal,AR,-22.5164,-63.8013,73.04,23,0,5.44,clear sky,2021-10-27 01:16:13
546,Bom Jesus,BR,-9.0744,-44.3586,81.75,50,14,6.38,few clouds,2021-10-27 01:16:13
547,Kaoma,ZM,-14.7833,24.8,64.62,77,0,0.72,clear sky,2021-10-27 01:16:14
548,Bentiu,SS,9.2333,29.8333,73.11,83,93,4.83,overcast clouds,2021-10-27 01:16:14
549,Puerto Escondido,MX,15.85,-97.0667,81.37,86,91,7.43,overcast clouds,2021-10-27 01:13:09
550,Emba,KZ,48.8264,58.1442,32.31,53,0,5.1,clear sky,2021-10-27 01:16:15
551,Mayor Pablo Lagerenza,PY,-19.9309,-60.7718,73.92,40,0,6.06,clear sky,2021-10-27 01:16:15
552,Nabire,ID,-3.3667,135.4833,85.57,68,12,3.06,few clouds,2021-10-27 01:16:16
553,Xining,CN,36.6167,101.7667,33.55,81,100,2.77,overcast clouds,2021-10-27 01:16:16
554,Yumen,CN,40.2833,97.2,38.12,66,0,3.24,clear sky,2021-10-27 01:16:17
555,Kalianget,ID,-7.05,113.9333,84.61,68,91,8.03,overcast clouds,2021-10-27 01:16:17
556,Houston,US,29.7633,-95.3633,80.31,82,75,5.99,broken clouds,2021-10-27 01:12:17
557,Lakatoro,VU,-16.0999,167.4164,83.53,72,13,8.19,few clouds,2021-10-27 01:16:18
558,Aklavik,CA,68.2191,-135.0107,27.32,93,90,3.44,light snow,2021-10-27 01:16:18
559,Caloundra,AU,-26.8,153.1333,85.35,76,43,5.99,scattered clouds,2021-10-27 01:16:18
560,Turangi,NZ,-39.0,175.9333,67.48,56,100,6.06,overcast clouds,2021-10-27 01:16:19
561,Merritt,CA,50.1123,-120.7942,45.45,96,99,5.06,overcast clouds,2021-10-27 01:16:19
562,Rostock,DE,54.0887,12.1405,53.96,92,100,15.79,overcast clouds,2021-10-27 01:13:05
563,Kailua,US,21.4022,-157.7394,85.98,65,75,8.05,broken clouds,2021-10-27 01:12:14
564,Parelhas,BR,-6.6878,-36.6575,75.78,72,9,23.94,clear sky,2021-10-27 01:16:20
565,Tukrah,LY,32.5341,20.5791,69.46,78,0,8.3,clear sky,2021-10-27 01:16:20
566,Vaitape,PF,-16.5167,-151.75,79.72,72,15,7.78,few clouds,2021-10-27 01:16:21
567,Turukhansk,RU,65.8167,87.9833,21.47,92,100,17.43,light snow,2021-10-27 01:16:21
568,Balakhta,RU,55.38,91.6,39.67,64,100,19.19,overcast clouds,2021-10-27 01:16:21
569,Solwezi,ZM,-12.1688,26.3894,66.16,60,62,3.27,broken clouds,2021-10-27 01:16:22
570,Chokurdakh,RU,70.6333,147.9167,-5.82,97,99,4.47,overcast clouds,2021-10-27 01:16:22
571,Atambua,ID,-9.1061,124.8925,86.18,51,100,1.92,overcast clouds,2021-10-27 01:15:37
572,Chipinge,ZW,-20.1883,32.6236,61.52,95,50,5.26,scattered clouds,2021-10-27 01:16:23
573,Whakatane,NZ,-37.9585,176.9854,68.5,84,99,3.0,overcast clouds,2021-10-27 01:16:23
574,Aksay,RU,47.26,39.87,29.14,54,6,5.73,clear sky,2021-10-27 01:16:23
575,Noumea,NC,-22.2763,166.4572,85.98,99,100,11.16,overcast clouds,2021-10-27 01:16:24
576,Christchurch,NZ,-43.5333,172.6333,67.95,68,90,1.01,overcast clouds,2021-10-27 01:14:22
577,Zvenyhorodka,UA,49.0787,30.9675,35.85,88,0,7.63,clear sky,2021-10-27 01:16:24
578,Houma,US,29.5958,-90.7195,75.97,88,82,5.75,broken clouds,2021-10-27 01:14:53
579,Itarema,BR,-2.9248,-39.9167,80.06,76,8,16.24,clear sky,2021-10-27 01:15:38
580,Khuzdar,PK,27.7384,66.6434,58.69,24,0,3.02,clear sky,2021-10-27 01:16:25
581,Manta,EC,-0.95,-80.7333,74.98,83,90,10.36,overcast clouds,2021-10-27 01:16:26
582,Qasigiannguit,GL,68.8193,-51.1922,12.45,78,2,4.43,clear sky,2021-10-27 01:16:26
583,Corn Island,NI,12.1694,-83.0418,83.89,71,25,12.64,scattered clouds,2021-10-27 01:16:26
584,Arona,ES,28.0996,-16.681,66.74,67,20,10.36,few clouds,2021-10-27 01:16:27
585,Krasnyy Chikoy,RU,50.3643,108.7512,35.37,61,8,3.94,clear sky,2021-10-27 01:16:27
586,La Belleza,CO,5.8637,-73.9617,52.81,98,100,3.22,moderate rain,2021-10-27 01:16:28
587,Haines Junction,CA,60.7522,-137.5108,28.35,86,100,0.0,overcast clouds,2021-10-27 01:16:28
588,Kabala,SL,9.5833,-11.55,69.06,97,100,0.22,overcast clouds,2021-10-27 01:16:28
589,Camopi,GF,3.1655,-52.3158,74.71,92,61,4.76,broken clouds,2021-10-27 01:16:29
590,Lubango,AO,-14.9172,13.4925,60.44,37,70,3.15,broken clouds,2021-10-27 01:16:29
591,Hualmay,PE,-11.0964,-77.6139,63.16,83,100,9.4,overcast clouds,2021-10-27 01:12:19
592,Kharan,PK,28.5833,65.4167,64.24,14,0,6.73,clear sky,2021-10-27 01:16:30
593,Pleasant Point,NZ,-44.2667,171.1333,63.28,77,42,10.65,scattered clouds,2021-10-27 01:16:30
594,Kautokeino,NO,69.0125,23.0412,19.49,96,100,8.81,overcast clouds,2021-10-27 01:16:30
595,Gambo,CF,4.6482,22.2633,69.33,98,100,1.57,moderate rain,2021-10-27 01:16:31
596,Ust-Tsilma,RU,65.441,52.1498,20.71,93,100,4.47,overcast clouds,2021-10-27 01:16:31
597,Mercedes,AR,-34.6515,-59.4307,80.85,49,4,6.67,clear sky,2021-10-27 01:16:32
598,Melfi,IT,40.9965,15.6514,52.48,85,100,2.73,overcast clouds,2021-10-27 01:16:32
599,Cairns,AU,-16.9167,145.7667,93.07,59,40,11.5,scattered clouds,2021-10-27 01:16:33
600,Nizhnevartovsk,RU,60.9344,76.5531,21.22,93,75,13.42,broken clouds,2021-10-27 01:16:33
601,Jardim,BR,-21.4803,-56.1381,74.43,58,100,3.8,overcast clouds,2021-10-27 01:16:34
602,Santa Cruz,BO,-17.8,-63.1667,72.86,64,20,6.91,few clouds,2021-10-27 01:15:57
603,Rio Gallegos,AR,-51.6226,-69.2181,46.45,57,0,14.97,clear sky,2021-10-27 01:16:34
604,Corinto,GR,37.9407,22.9573,59.9,75,5,4.92,clear sky,2021-10-27 01:11:42
605,Green River,US,41.5286,-109.4662,36.99,68,8,8.01,clear sky,2021-10-27 01:15:11
606,Liusha,CN,27.2098,108.59,51.64,93,100,1.5,overcast clouds,2021-10-27 01:16:35
607,Moerai,PF,-22.4333,-151.3333,73.76,77,98,23.02,light rain,2021-10-27 01:16:36
608,Ganzhou,CN,28.8184,115.4327,66.24,64,91,2.82,overcast clouds,2021-10-27 01:16:36
609,Makaha,US,21.4694,-158.2175,85.91,51,1,11.5,clear sky,2021-10-27 01:16:36
610,Hobyo,SO,5.3505,48.5268,80.17,76,81,7.47,broken clouds,2021-10-27 01:16:37
611,Mayo,US,38.8876,-76.5119,54.41,70,1,14.0,clear sky,2021-10-27 01:16:38
612,Port-Cartier,CA,50.0334,-66.8654,41.76,69,0,7.9,clear sky,2021-10-27 01:16:38
613,Ayagoz,KZ,47.9714,80.4392,37.06,75,100,5.37,overcast clouds,2021-10-27 01:16:38
614,San Francisco Del Mar,MX,16.2333,-94.65,82.96,80,95,9.24,overcast clouds,2021-10-27 01:16:39
615,Neyshabur,IR,36.2133,58.7958,49.84,35,59,1.63,broken clouds,2021-10-27 01:16:39
616,Teguise,ES,29.0605,-13.564,64.62,68,0,11.5,clear sky,2021-10-27 01:16:40
617,Ouargaye,BF,11.5033,0.0572,81.93,48,100,6.31,overcast clouds,2021-10-27 01:16:40
618,Kapoeta,SS,4.7717,33.5903,75.06,64,59,2.64,broken clouds,2021-10-27 01:16:41
619,Sulangan,PH,11.1373,123.7228,82.29,80,100,14.0,moderate rain,2021-10-27 01:16:41
620,Kant,IN,27.8,79.8,64.17,73,0,4.32,clear sky,2021-10-27 01:16:41
621,Arlit,NE,18.7369,7.3853,83.75,13,3,7.4,clear sky,2021-10-27 01:16:42
622,Awjilah,LY,29.1081,21.2869,68.85,53,0,9.26,clear sky,2021-10-27 01:16:42
623,Mehran,IR,33.1222,46.1646,62.08,25,0,3.69,clear sky,2021-10-27 01:16:43
624,Sohag,EG,26.557,31.6948,71.76,30,0,5.32,clear sky,2021-10-27 01:16:43
625,Malindi,KE,-3.2175,40.1191,77.68,84,88,12.03,light rain,2021-10-27 01:16:44
626,Virovitica,HR,45.8319,17.3839,41.85,83,100,2.51,overcast clouds,2021-10-27 01:16:44
627,Hofn,IS,64.2539,-15.2082,42.78,80,100,13.31,overcast clouds,2021-10-27 01:13:54
628,Kyle,US,29.9984,-97.8715,79.45,85,20,11.5,few clouds,2021-10-27 01:16:44
629,Nushki,PK,29.5542,66.0215,54.75,19,0,1.83,clear sky,2021-10-27 01:16:45
630,Altamont,US,42.2068,-121.7372,48.78,74,90,3.0,overcast clouds,2021-10-27 01:16:45
631,General Roca,AR,-39.0333,-67.5833,77.63,18,0,12.41,clear sky,2021-10-27 01:16:46
632,Buta,CD,2.7858,24.73,69.85,99,100,1.57,overcast clouds,2021-10-27 01:16:46
633,Koungou,YT,-12.7336,45.2042,78.51,89,0,6.91,light rain,2021-10-27 01:16:47
634,Sidi Ali,DZ,36.0998,0.4206,65.05,70,100,4.03,overcast clouds,2021-10-27 01:16:47
635,Rulenge,TZ,-2.7175,30.6325,62.46,70,100,0.22,overcast clouds,2021-10-27 01:16:47
636,Luwuk,ID,-0.9516,122.7875,86.86,64,24,2.89,few clouds,2021-10-27 01:16:48
637,Solnechnyy,RU,50.7214,136.6319,41.83,82,100,1.16,overcast clouds,2021-10-27 01:15:54
638,Leninskoye,KZ,41.7589,69.3864,51.58,37,100,3.36,overcast clouds,2021-10-27 01:16:48
639,Eregli,TR,37.5133,34.0467,44.17,52,9,0.63,clear sky,2021-10-27 01:16:49
640,Kupang,ID,-10.1667,123.5833,90.18,58,20,5.75,few clouds,2021-10-27 01:16:49
641,Berlevag,NO,70.8578,29.0864,33.89,59,100,20.74,overcast clouds,2021-10-27 01:16:49
642,West Fargo,US,46.875,-96.9004,54.01,47,90,3.0,overcast clouds,2021-10-27 01:16:50
643,Santa Isabel Do Rio Negro,BR,-0.4139,-65.0192,73.42,99,100,0.51,overcast clouds,2021-10-27 01:16:50
644,Greymouth,NZ,-42.4667,171.2,62.85,67,44,6.15,scattered clouds,2021-10-27 01:16:51
645,Gondanglegi,ID,-7.7479,112.0132,85.98,63,97,12.37,overcast clouds,2021-10-27 01:16:51
646,Blankenberge,BE,51.3131,3.1323,57.94,87,100,1.99,overcast clouds,2021-10-27 01:16:51
647,Puerto Lempira,HN,15.2667,-83.7667,78.1,84,11,7.18,few clouds,2021-10-27 01:16:52
648,Lafayette,US,30.2335,-92.0668,77.02,83,40,0.0,scattered clouds,2021-10-27 01:15:27
649,Imperia,IT,43.9667,7.7833,53.56,66,0,8.75,clear sky,2021-10-27 01:16:52
650,Gazli,UZ,40.1333,63.45,54.03,42,100,4.76,overcast clouds,2021-10-27 01:16:53
651,Cartagena Del Chaira,CO,1.3349,-74.8429,70.86,100,100,2.3,overcast clouds,2021-10-27 01:16:53
652,Klaksvik,FO,62.2266,-6.589,50.92,83,0,24.52,clear sky,2021-10-27 01:16:54
653,Lobito,AO,-12.3481,13.5456,72.91,78,98,5.48,overcast clouds,2021-10-27 01:16:54
654,Hay River,CA,60.8156,-115.7999,40.98,81,40,5.75,scattered clouds,2021-10-27 01:16:14
655,College,US,64.8569,-147.8028,31.59,91,90,1.01,overcast clouds,2021-10-27 01:16:55
656,Stornoway,GB,58.2093,-6.3865,53.56,87,75,13.8,broken clouds,2021-10-27 01:16:55
657,Mayumba,GA,-3.432,10.6554,76.32,91,100,8.72,light rain,2021-10-27 01:16:55
658,Wagar,SD,16.1525,36.2032,85.24,50,62,9.33,broken clouds,2021-10-27 01:16:56
659,Geilo,NO,60.5333,8.2076,40.46,87,100,3.29,light rain,2021-10-27 01:16:56
660,Outjo,NA,-20.1167,16.15,69.6,30,98,6.46,overcast clouds,2021-10-27 01:16:57
661,Salzburg,AT,47.7994,13.044,45.79,97,51,4.61,broken clouds,2021-10-27 01:16:57
662,Zhigansk,RU,66.7697,123.3711,16.07,93,98,11.52,overcast clouds,2021-10-27 01:16:57
663,Nyzhnya Duvanka,UA,49.5846,38.1743,32.81,47,9,6.85,clear sky,2021-10-27 01:16:58
664,Kutum,SD,14.2,24.6667,71.49,25,99,7.54,overcast clouds,2021-10-27 01:16:58
665,Grand Gaube,MU,-20.0064,57.6608,72.37,70,6,7.0,clear sky,2021-10-27 01:16:59
666,Bayir,TR,37.2687,28.2167,43.32,68,5,1.99,clear sky,2021-10-27 01:16:59
667,Kamaishi,JP,39.2667,141.8833,49.15,68,100,4.76,overcast clouds,2021-10-27 01:17:00
668,Rawson,AR,-43.3002,-65.1023,67.71,37,0,16.6,clear sky,2021-10-27 01:17:00
669,Pajan,EC,-1.5667,-80.4167,73.69,83,100,5.17,overcast clouds,2021-10-27 01:17:00
670,Ulaangom,MN,49.9811,92.0667,30.58,67,34,2.01,scattered clouds,2021-10-27 01:14:51
671,Gornopravdinsk,RU,60.05,69.9,21.94,89,6,8.52,clear sky,2021-10-27 01:17:01
672,Mosjoen,NO,65.836,13.1908,44.67,96,100,6.08,overcast clouds,2021-10-27 01:17:02
673,Amapa,BR,1.0,-52.0,74.62,88,100,4.43,overcast clouds,2021-10-27 01:17:02
674,Saint-Leu,RE,-21.15,55.2833,70.63,75,22,3.4,few clouds,2021-10-27 01:17:03
675,Grand-Santi,GF,4.25,-54.3833,74.55,92,7,3.51,clear sky,2021-10-27 01:17:03
676,Vung Tau,VN,10.346,107.0843,77.65,88,100,11.86,overcast clouds,2021-10-27 01:16:14
677,Mitsamiouli,KM,-11.3847,43.2844,77.86,81,26,6.4,scattered clouds,2021-10-27 01:17:04
678,Pitiquito,MX,30.7,-112.0833,69.19,17,0,11.34,clear sky,2021-10-27 01:17:04
679,Bilibino,RU,68.0546,166.4372,-13.23,99,98,0.89,overcast clouds,2021-10-27 01:17:04
680,Toyooka,JP,35.5333,134.8333,60.91,82,75,3.44,fog,2021-10-27 01:17:05
681,Timmins,CA,48.4669,-81.3331,37.22,81,40,10.36,scattered clouds,2021-10-27 01:17:05
682,Maputo,MZ,-25.9653,32.5892,69.48,91,75,5.01,broken clouds,2021-10-27 01:17:06
683,Sheridan,US,44.8333,-106.9173,46.58,65,1,8.05,clear sky,2021-10-27 01:17:06
684,Zhicheng,CN,30.2956,111.5047,62.08,67,93,2.06,light rain,2021-10-27 01:17:06
685,Troitskoye,RU,52.9821,84.6757,35.38,58,100,8.68,overcast clouds,2021-10-27 01:17:07
686,Brae,GB,60.3964,-1.353,53.51,89,47,20.22,scattered clouds,2021-10-27 01:17:07
687,Emerald,AU,-23.5333,148.1667,84.34,53,0,9.8,clear sky,2021-10-27 01:17:08
688,Davila,PH,18.4726,120.5763,85.98,66,13,14.61,few clouds,2021-10-27 01:17:08
689,Bom Jesus Da Lapa,BR,-13.255,-43.4181,77.97,59,5,5.26,clear sky,2021-10-27 01:17:08
690,Zhanaozen,KZ,43.3,52.8,37.83,70,20,8.19,few clouds,2021-10-27 01:17:09
691,Bernburg,DE,51.8,11.7333,51.01,84,100,9.17,overcast clouds,2021-10-27 01:17:09
692,Moyale,KE,3.5167,39.0584,65.66,84,35,6.58,light rain,2021-10-27 01:17:10
693,Plouzane,FR,48.3833,-4.6167,57.38,94,90,14.97,overcast clouds,2021-10-27 01:17:10
694,Muscat,OM,23.6139,58.5922,78.82,68,0,8.16,clear sky,2021-10-27 01:17:10
695,Sorong,ID,-0.8833,131.25,82.85,76,99,2.84,overcast clouds,2021-10-27 01:17:11
696,Trat,TH,12.5,102.5,82.98,79,46,6.93,scattered clouds,2021-10-27 01:17:11
697,Barrhead,GB,55.7992,-4.3929,58.53,94,90,5.01,light rain,2021-10-27 01:17:12
698,Bairnsdale,AU,-37.8333,147.6167,75.47,68,6,4.0,clear sky,2021-10-27 01:17:12
699,Shizunai,JP,42.3339,142.3669,56.7,70,63,4.9,broken clouds,2021-10-27 01:17:12
